[
    { "name": "Manambolly", "difficulty": "Easy", "lat": 10.3411, "lng": 76.9011, "details": "Distance: 10km, Duration: 3 Hours, Type: one way, Price: ₹1299", "url": "https://www.trektamilnadu.com/trail/manambolly" },
    { "name": "Topslip - Pandaravarai", "difficulty": "Tough", "lat": 10.4713, "lng": 76.8412, "details": "Distance: 12km, Duration: 6 Hours, Type: one way, Price: ₹3519", "url": "https://www.trektamilnadu.com/trail/topslip-pandaravarai" },
    { "name": "Aliyar (Canal bank)", "difficulty": "Moderate", "lat": 10.5116, "lng": 76.8777, "details": "Distance: 8km, Duration: 3 Hours, Type: one way, Price: ₹1699", "url": "https://www.trektamilnadu.com/trail/aliyar-canal-bank" },
    { "name": "Sadivayal - Siruvani", "difficulty": "Moderate", "lat": 10.9439, "lng": 76.7185, "details": "Distance: 17km, Duration: 7 Hours, Type: two way, Price: ₹2669", "url": "https://www.trektamilnadu.com/trail/sadivayal-siruvani" },
    { "name": "Sembukarai - Perumalmudi", "difficulty": "Moderate", "lat": 11.0594, "lng": 76.7813, "details": "Distance: 9km, Duration: 5 Hours, Type: two way, Price: ₹3499", "url": "https://www.trektamilnadu.com/trail/sembukarai-perumalmudi" },
    { "name": "Baraliyar", "difficulty": "Easy", "lat": 11.338, "lng": 76.8716, "details": "Distance: 4km, Duration: 2 Hours, Type: one way, Price: ₹849", "url": "https://www.trektamilnadu.com/trail/baraliyar" },
    { "name": "Kodaikanal - Vellagavi (With Accommodation)", "difficulty": "Tough", "lat": 10.2145, "lng": 77.4826, "details": "Distance: 12km, Duration: 6 Hours, Type: two way, Price: ₹2999", "url": "https://www.trektamilnadu.com/trail/vattakanal-vellagavi" },
    { "name": "Kodaikanal - Vellagavi - Kumbakarai (With Accommodation)", "difficulty": "Tough", "lat": 10.2145, "lng": 77.4826, "details": "Distance: 14km, Duration: 8 Hours, Type: one way, Price: ₹2999", "url": "https://www.trektamilnadu.com/trail/vattakanal-vellagavi-1" },
    { "name": "Zero point - Karunkajam Falls", "difficulty": "Easy", "lat": 10.3858, "lng": 77.3766, "details": "Distance: 4km, Duration: 2 Hours, Type: two way, Price: ₹719", "url": "https://www.trektamilnadu.com/trail/zero-point-karunkajam-falls" },
    { "name": "Kalikesam - Balamore", "difficulty": "Moderate", "lat": 8.38175, "lng": 77.4007, "details": "Distance: 14km, Duration: 6 Hours, Type: two way, Price: ₹1999", "url": "https://www.trektamilnadu.com/trail/kalikesam-balamore" },
    { "name": "Injikadavu", "difficulty": "Moderate", "lat": 8.38175, "lng": 77.4007, "details": "Distance: 18km, Duration: 8 Hours, Type: one way, Price: ₹2629", "url": "https://www.trektamilnadu.com/trail/injikadavu" },
    { "name": "Guthirayan Peak", "difficulty": "Tough", "lat": 12.4181, "lng": 77.8535, "details": "Distance: 11km, Duration: 6 Hours, Type: two way, Price: ₹2849", "url": "https://www.trektamilnadu.com/trail/guthirayan-peak" },
    { "name": "Biligundulu - Rasimanal", "difficulty": "Moderate", "lat": 12.1844, "lng": 77.7308, "details": "Distance: 14km, Duration: 5 Hours, Type: two way, Price: ₹1599", "url": "https://www.trektamilnadu.com/trail/biligundulu-rasimanal" },
    { "name": "Aiyur - Sami Lake", "difficulty": "Easy", "lat": 12.4181, "lng": 77.8535, "details": "Distance: 7km, Duration: 3 Hours, Type: two way, Price: ₹799", "url": "https://www.trektamilnadu.com/trail/aiyur-sami-lake" },
    { "name": "Kutladampatti Falls -Thadagai Trail", "difficulty": "Moderate", "lat": 10.0608, "lng": 77.9857, "details": "Distance: 8km, Duration: 4 Hours, Type: two way, Price: ₹2129", "url": "https://www.trektamilnadu.com/trail/thadagai-trail-kutladampatti-falls-sotharu" },
    { "name": "Kutladampatti Falls -Thadagai Trail ( Easy )", "difficulty": "Easy", "lat": 10.0608, "lng": 77.9857, "details": "Distance: 4km, Duration: 2 Hours, Type: two way, Price: ₹799", "url": "https://www.trektamilnadu.com/trail/kutladampatti-falls-thadagai-trail-easy-trek" },
    { "name": "Cairn Hill", "difficulty": "Easy", "lat": 11.3884, "lng": 76.6808, "details": "Distance: 3km, Duration: 2 Hours, Type: one way, Price: ₹629", "url": "https://www.trektamilnadu.com/trail/cairn-hill-trekking-tamil-nadu" },
    { "name": "Longwood Shola", "difficulty": "Easy", "lat": 11.4318, "lng": 76.8719, "details": "Distance: 3km, Duration: 2 Hours, Type: two way, Price: ₹629", "url": "https://www.trektamilnadu.com/trail/long-wood-shola" },
    { "name": "Karikaiyur to Porivarai Rock Painting", "difficulty": "Moderate", "lat": 11.4441, "lng": 76.9463, "details": "Distance: 6km, Duration: 3 Hours, Type: two way, Price: ₹1099", "url": "https://www.trektamilnadu.com/trail/porivarai-rock-painting" },
    { "name": "Karikaiyur to Rangasamy Peak", "difficulty": "Tough", "lat": 11.4588, "lng": 76.9958, "details": "Distance: 8km, Duration: 6 Hours, Type: two way, Price: ₹2999", "url": "https://www.trektamilnadu.com/trail/karikayur-to-rangasamy-peak" },
    { "name": "Parsons Valley Trekking Shed to Mukurthi Hut", "difficulty": "Tough", "lat": 11.3993, "lng": 76.5964, "details": "Distance: 20km, Duration: 7 Hours, Type: two way, Price: ₹3369", "url": "https://www.trektamilnadu.com/trail/parsonvalley-trekking-shed-to-mukurthi-hut" },
    { "name": "Avalanche - Kolaribetta", "difficulty": "Tough", "lat": 11.3001, "lng": 76.5905, "details": "Distance: 18km, Duration: 8 Hours, Type: two way, Price: ₹3559", "url": "https://www.trektamilnadu.com/trail/avalanche-kolaribetta" },
    { "name": "Avalanche (Cauliflower shola) - Kolaribetta", "difficulty": "Moderate", "lat": 11.3008, "lng": 76.5909, "details": "Distance: 11km, Duration: 6 Hours, Type: two way, Price: ₹3019", "url": "https://www.trektamilnadu.com/trail/avalanche-cauliflower-shola-kolaribetta" },
    { "name": "Gene Pool", "difficulty": "Easy", "lat": 11.4699, "lng": 76.4122, "details": "Distance: 8km, Duration: 4 Hours, Type: two way, Price: ₹899", "url": "https://www.trektamilnadu.com/trail/gene-pool" },
    { "name": "Needle Rock", "difficulty": "Tough", "lat": 11.5201, "lng": 76.5118, "details": "Distance: 4km, Duration: 4 Hours, Type: one way, Price: ₹2549", "url": "https://www.trektamilnadu.com/trail/needle-rock" },
    { "name": "Kurumbapatti Zoo - Gundur", "difficulty": "Tough", "lat": 11.7439, "lng": 78.1694, "details": "Distance: 6km, Duration: 3 Hours, Type: one way, Price: ₹2099", "url": "https://www.trektamilnadu.com/trail/kurumbapatti-zoo-gundur" },
    { "name": "Kondappanaikanpatti - Gundur", "difficulty": "Moderate", "lat": 11.7439, "lng": 78.1694, "details": "Distance: 5km, Duration: 3 Hours, Type: one way, Price: ₹1449", "url": "https://www.trektamilnadu.com/trail/kondappanaikanpatti-gundur" },
    { "name": "Nagalur - Sanniyasimalai Peak", "difficulty": "Easy", "lat": 11.7827, "lng": 78.2022, "details": "Distance: 5km, Duration: 2 Hours, Type: two way, Price: ₹539", "url": "https://www.trektamilnadu.com/trail/nagalur-sanniyasimalai-peak" },
    { "name": "Courtallam - Shenbaga Devi Falls", "difficulty": "Easy", "lat": 8.93261, "lng": 77.2664, "details": "Distance: 3km, Duration: 2 Hours, Type: two way, Price: ₹629", "url": "https://www.trektamilnadu.com/trail/courtallam-shenbagadevi-falls" },
    { "name": "Theerthaparai", "difficulty": "Easy", "lat": 9.27244, "lng": 77.3821, "details": "Distance: 6km, Duration: 3 Hours, Type: two way, Price: ₹719", "url": "https://www.trektamilnadu.com/trail/theerthaparai" },
    { "name": "Chinna Suruli - Thenpalani", "difficulty": "Moderate", "lat": 9.7455, "lng": 77.4489, "details": "Distance: 12km, Duration: 6 Hours, Type: one way, Price: ₹1999", "url": "https://www.trektamilnadu.com/trail/chinna-suruli-thenpalani" },
    { "name": "Kurangani - Sambalaru", "difficulty": "Moderate", "lat": 10.0928, "lng": 77.2379, "details": "Distance: 5km, Duration: 3 Hours, Type: one way, Price: ₹799", "url": "https://www.trektamilnadu.com/trail/kurangani-sambalaru" },
    { "name": "Karaparai", "difficulty": "Moderate", "lat": 9.85383, "lng": 77.5992, "details": "Distance: 9km, Duration: 4 Hours, Type: two way, Price: ₹1279", "url": "https://www.trektamilnadu.com/trail/karaparai" },
    { "name": "Gudiyam Caves Heritage Trail", "difficulty": "Easy", "lat": 13.271, "lng": 79.8333, "details": "Distance: 9km, Duration: 4 Hours, Type: two way, Price: ₹859", "url": "https://www.trektamilnadu.com/trail/gudiyam-caves" },
    { "name": "Karaiyar - Moolakasam", "difficulty": "Easy", "lat": 8.68108, "lng": 77.3458, "details": "Distance: 4km, Duration: 2 Hours, Type: one way, Price: ₹899", "url": "https://www.trektamilnadu.com/trail/karaiyar-moolakasam" },
    { "name": "Yelagiri - Swamimalai", "difficulty": "Easy", "lat": 12.5854, "lng": 78.6576, "details": "Distance: 6km, Duration: 3 Hours, Type: two way, Price: ₹499", "url": "https://www.trektamilnadu.com/trail/yelagiri-swamimalai" },
    { "name": "Jalagamparai", "difficulty": "Moderate", "lat": 12.568, "lng": 78.6228, "details": "Distance: 8km, Duration: 4 Hours, Type: two way, Price: ₹999", "url": "https://www.trektamilnadu.com/trail/jalagamparai" },
    { "name": "Chinnar Checkpost - Kottar", "difficulty": "Easy", "lat": 10.3547, "lng": 77.2196, "details": "Distance: 4km, Duration: 2 Hours, Type: two way, Price: ₹719", "url": "https://www.trektamilnadu.com/trail/chinnar-checkpost-kottar" },
    { "name": "Renugambal Kovil - Kullar caves", "difficulty": "Easy", "lat": 12.5581, "lng": 79.0154, "details": "Distance: 12km, Duration: 6 Hours, Type: two way, Price: ₹1299", "url": "https://www.trektamilnadu.com/trail/renugambal-kovil-kullar-caves" },
    { "name": "Shenbagathoppu - W.Pudhupatti", "difficulty": "Moderate", "lat": 9.51419, "lng": 77.6146, "details": "Distance: 9km, Duration: 4 Hours, Type: one way, Price: ₹1199", "url": "https://www.trektamilnadu.com/trail/shenbagathoppu-wpudhupatti" }
]